{"type": "FeatureCollection", "id": "http://lod.squirrel.link/data/limes/MilitaryCamp_collection", "name": "MilitaryCamp Instances Collection", "features": [{"type": "Feature", "id": "http://lod.squirrel.link/data/limes/daicus/918ef494-4408-4a91-8ee0-61f6087ffee7", "name": "Kastell Surducul Mare (918ef494-4408-4a91-8ee0-61f6087ffee7)", "dateprops": [], "properties": {}, "geometry": {"type": "Point", "coordinates": [21.587219, 45.265], "crs": "4326"}}, {"type": "Feature", "id": "http://lod.squirrel.link/data/limes/daicus/cba75304-f136-465d-90fb-56dff3acc018", "name": "Kastell Eno\u015fe\u015fti (Acidava) (cba75304-f136-465d-90fb-56dff3acc018)", "dateprops": [], "properties": {}, "geometry": {"type": "Point", "coordinates": [24.30325, 44.374806], "crs": "4326"}}, {"type": "Feature", "id": "http://lod.squirrel.link/data/limes/daicus/64ae9ea8-9dca-4e22-b32b-c2f95fd80b44", "name": "Kastell F\u00e2lfani (64ae9ea8-9dca-4e22-b32b-c2f95fd80b44)", "dateprops": [], "properties": {}, "geometry": {"type": "Point", "coordinates": [24.785111, 44.603278], "crs": "4326"}}, {"type": "Feature", "id": "http://lod.squirrel.link/data/limes/daicus/bd14e9f3-dd38-4329-a655-60b00fd8d5b7", "name": "Kastell Sighisoara (bd14e9f3-dd38-4329-a655-60b00fd8d5b7)", "dateprops": [], "properties": {}, "geometry": {"type": "Point", "coordinates": [24.752103, 46.239431], "crs": "4326"}}, {"type": "Feature", "id": "http://lod.squirrel.link/data/limes/daicus/22bf9a4e-a715-43f7-9fd0-4a60b8b77288", "name": "Kastell Tia Mare (22bf9a4e-a715-43f7-9fd0-4a60b8b77288)", "dateprops": [], "properties": {}, "geometry": {"type": "Point", "coordinates": [24.651389, 43.866389], "crs": "4326"}}, {"type": "Feature", "id": "http://lod.squirrel.link/data/limes/daicus/9ac48ee9-00b6-46ab-a597-b6aa5f2d784a", "name": "Kastell Bivolari (Arutela) (9ac48ee9-00b6-46ab-a597-b6aa5f2d784a)", "dateprops": [], "properties": {}, "geometry": {"type": "Point", "coordinates": [24.312389, 45.309667], "crs": "4326"}}, {"type": "Feature", "id": "http://lod.squirrel.link/data/limes/daicus/4dbfae9e-f0f7-4dab-94ca-9bca2cec83aa", "name": "Kastell Fl\u0103m\u0103nda (Poiana) (4dbfae9e-f0f7-4dab-94ca-9bca2cec83aa)", "dateprops": [], "properties": {}, "geometry": {"type": "Point", "coordinates": [24.983333, 43.7345], "crs": "4326"}}, {"type": "Feature", "id": "http://lod.squirrel.link/data/limes/daicus/34d0d768-2d4d-42b3-82ae-e29bad5c1eed", "name": "Kastell Gresia (34d0d768-2d4d-42b3-82ae-e29bad5c1eed)", "dateprops": [], "properties": {}, "geometry": {"type": "Point", "coordinates": [24.917722, 44.172583], "crs": "4326"}}, {"type": "Feature", "id": "http://lod.squirrel.link/data/limes/daicus/9ba7d74c-175e-48c8-9403-dbbdd650ed22", "name": "Kastell Criste\u015fti (9ba7d74c-175e-48c8-9403-dbbdd650ed22)", "dateprops": [], "properties": {}, "geometry": {"type": "Point", "coordinates": [24.476111, 46.510556], "crs": "4326"}}, {"type": "Feature", "id": "http://lod.squirrel.link/data/limes/daicus/47a7d25e-6315-4256-b257-c2dfaea5e42f", "name": "Kastell Z\u0103voi (Acmonia ?) (47a7d25e-6315-4256-b257-c2dfaea5e42f)", "dateprops": [], "properties": {}, "geometry": {"type": "Point", "coordinates": [22.410833, 45.525278], "crs": "4326"}}, {"type": "Feature", "id": "http://lod.squirrel.link/data/limes/daicus/ed79872f-dcb1-48d0-a008-5a3c65432a67", "name": "Kastell Aradul Nou (ed79872f-dcb1-48d0-a008-5a3c65432a67)", "dateprops": [], "properties": {}, "geometry": {"type": "Point", "coordinates": [21.315097, 46.146819], "crs": "4326"}}, {"type": "Feature", "id": "http://lod.squirrel.link/data/limes/daicus/9b62118c-9936-42f2-a6e7-49f649c937f2", "name": "Kastell Bumbe\u015fti (9b62118c-9936-42f2-a6e7-49f649c937f2)", "dateprops": [], "properties": {}, "geometry": {"type": "Point", "coordinates": [23.4, 45.166667], "crs": "4326"}}, {"type": "Feature", "id": "http://lod.squirrel.link/data/limes/daicus/0ccd99fd-62d1-4978-873a-106b1f5e3880", "name": "Kastell Ruc\u0103r (0ccd99fd-62d1-4978-873a-106b1f5e3880)", "dateprops": [], "properties": {}, "geometry": {"type": "Point", "coordinates": [25.178583, 45.398444], "crs": "4326"}}, {"type": "Feature", "id": "http://lod.squirrel.link/data/limes/daicus/1b4b9c1f-cb64-4c02-976d-61c2147b0705", "name": "Kastell R\u00e2ul Vadului (1b4b9c1f-cb64-4c02-976d-61c2147b0705)", "dateprops": [], "properties": {}, "geometry": {"type": "Point", "coordinates": [24.272806, 45.523639], "crs": "4326"}}, {"type": "Feature", "id": "http://lod.squirrel.link/data/limes/daicus/fb3dfa9f-ac48-4ced-a8dc-2b635594cfdd", "name": "Kastell V\u0103r\u0103dia (fb3dfa9f-ac48-4ced-a8dc-2b635594cfdd)", "dateprops": [], "properties": {}, "geometry": {"type": "Point", "coordinates": [21.551161, 45.079397], "crs": "4326"}}, {"type": "Feature", "id": "http://lod.squirrel.link/data/limes/daicus/5d0fac8e-53ae-4ae7-92a2-dd419eee0dce", "name": "Kastell Hoghiz (5d0fac8e-53ae-4ae7-92a2-dd419eee0dce)", "dateprops": [], "properties": {}, "geometry": {"type": "Point", "coordinates": [25.300011, 45.983367], "crs": "4326"}}, {"type": "Feature", "id": "http://lod.squirrel.link/data/limes/daicus/af909713-68f5-4b6d-89d5-03f7fc7fd5c1", "name": "Kastell S\u0103mbotin (Castra Traiana) (af909713-68f5-4b6d-89d5-03f7fc7fd5c1)", "dateprops": [], "properties": {}, "geometry": {"type": "Point", "coordinates": [24.373611, 45.173611], "crs": "4326"}}, {"type": "Feature", "id": "http://lod.squirrel.link/data/limes/daicus/0e91c0e7-3991-4a45-89ed-382f7c74731a", "name": "Kastell S\u0103pata de Jos II (0e91c0e7-3991-4a45-89ed-382f7c74731a)", "dateprops": [], "properties": {}, "geometry": {"type": "Point", "coordinates": [24.763694, 44.707917], "crs": "4326"}}, {"type": "Feature", "id": "http://lod.squirrel.link/data/limes/daicus/f35f2d3f-8925-4139-9e9b-cf07ee5aaecb", "name": "Kastell Borosneu Mare (f35f2d3f-8925-4139-9e9b-cf07ee5aaecb)", "dateprops": [], "properties": {}, "geometry": {"type": "Point", "coordinates": [26.016986, 45.843861], "crs": "4326"}}, {"type": "Feature", "id": "http://lod.squirrel.link/data/limes/daicus/f8305d66-9429-43c0-b6e3-73721df9986b", "name": "Kastell Urluieni II (f8305d66-9429-43c0-b6e3-73721df9986b)", "dateprops": [], "properties": {}, "geometry": {"type": "Point", "coordinates": [24.762111, 44.484583], "crs": "4326"}}, {"type": "Feature", "id": "http://lod.squirrel.link/data/limes/daicus/8f823c04-d42b-49ec-879d-2c446d575885", "name": "Kastell Voine\u015fti (8f823c04-d42b-49ec-879d-2c446d575885)", "dateprops": [], "properties": {}, "geometry": {"type": "Point", "coordinates": [25.076083, 45.297833], "crs": "4326"}}, {"type": "Feature", "id": "http://lod.squirrel.link/data/limes/daicus/986efe66-cf8a-4b64-a488-ad95d0f2dd79", "name": "Kastell Tih\u0103u (986efe66-cf8a-4b64-a488-ad95d0f2dd79)", "dateprops": [], "properties": {}, "geometry": {"type": "Point", "coordinates": [23.327689, 47.227733], "crs": "4326"}}, {"type": "Feature", "id": "http://lod.squirrel.link/data/limes/daicus/06eb8de4-750e-4ed9-ad04-9bf16d61c975", "name": "Kastell Momote\u015fti (Rusidava) (06eb8de4-750e-4ed9-ad04-9bf16d61c975)", "dateprops": [], "properties": {}, "geometry": {"type": "Point", "coordinates": [24.27, 44.650306], "crs": "4326"}}, {"type": "Feature", "id": "http://lod.squirrel.link/data/limes/daicus/aadec8db-70f9-4c40-833a-2a7c39c631d2", "name": "Kastell C\u0103tunele (aadec8db-70f9-4c40-833a-2a7c39c631d2)", "dateprops": [], "properties": {}, "geometry": {"type": "Point", "coordinates": [22.924444, 44.838889], "crs": "4326"}}, {"type": "Feature", "id": "http://lod.squirrel.link/data/limes/daicus/2c2fb600-f249-469e-a025-1961edf5132d", "name": "Kastell R\u0103zboieni (2c2fb600-f249-469e-a025-1961edf5132d)", "dateprops": [], "properties": {}, "geometry": {"type": "Point", "coordinates": [23.868333, 46.417222], "crs": "4326"}}, {"type": "Feature", "id": "http://lod.squirrel.link/data/limes/daicus/b0524f84-a9d2-45fa-9f69-d8164ad73440", "name": "Kastell Olteni (b0524f84-a9d2-45fa-9f69-d8164ad73440)", "dateprops": [], "properties": {}, "geometry": {"type": "Point", "coordinates": [25.849619, 45.970939], "crs": "4326"}}, {"type": "Feature", "id": "http://lod.squirrel.link/data/limes/daicus/7aa137c0-3763-4bd3-a1ec-bd8a88b3d786", "name": "Kastell C\u0103lug\u0103reni (7aa137c0-3763-4bd3-a1ec-bd8a88b3d786)", "dateprops": [], "properties": {}, "geometry": {"type": "Point", "coordinates": [24.877311, 46.628978], "crs": "4326"}}, {"type": "Feature", "id": "http://lod.squirrel.link/data/limes/daicus/1e218e82-f264-4241-a8e0-5efd9a1ec8a4", "name": "Kastell Islaz-Razovica (1e218e82-f264-4241-a8e0-5efd9a1ec8a4)", "dateprops": [], "properties": {}, "geometry": {"type": "Point", "coordinates": [24.870833, 43.751667], "crs": "4326"}}, {"type": "Feature", "id": "http://lod.squirrel.link/data/limes/daicus/7c3bf06c-8f79-457e-b56f-77da98c7a69b", "name": "Kastell B\u0103neasa II (7c3bf06c-8f79-457e-b56f-77da98c7a69b)", "dateprops": [], "properties": {}, "geometry": {"type": "Point", "coordinates": [24.961889, 43.935889], "crs": "4326"}}, {"type": "Feature", "id": "http://lod.squirrel.link/data/limes/daicus/19360a61-a15a-4d56-a100-f3be57e93ff1", "name": "Kastell Mofleni (Pelendava) (19360a61-a15a-4d56-a100-f3be57e93ff1)", "dateprops": [], "properties": {}, "geometry": {"type": "Point", "coordinates": [23.571889, 44.514111], "crs": "4326"}}, {"type": "Feature", "id": "http://lod.squirrel.link/data/limes/daicus/7422f9df-da23-450f-8eac-db2d8dfca42e", "name": "Kastell Livezile (7422f9df-da23-450f-8eac-db2d8dfca42e)", "dateprops": [], "properties": {}, "geometry": {"type": "Point", "coordinates": [24.57075, 47.186869], "crs": "4326"}}, {"type": "Feature", "id": "http://lod.squirrel.link/data/limes/daicus/5e6a65c9-32dd-4581-b6ab-a95afdc4d061", "name": "Kastell C\u00e2mpulung Muscel I (5e6a65c9-32dd-4581-b6ab-a95afdc4d061)", "dateprops": [], "properties": {}, "geometry": {"type": "Point", "coordinates": [25.012472, 45.22075], "crs": "4326"}}, {"type": "Feature", "id": "http://lod.squirrel.link/data/limes/daicus/b0cccdd1-2478-40bc-add2-a0e1bad88feb", "name": "Kastell Sl\u0103veni (b0cccdd1-2478-40bc-add2-a0e1bad88feb)", "dateprops": [], "properties": {}, "geometry": {"type": "Point", "coordinates": [24.528969, 44.081789], "crs": "4326"}}, {"type": "Feature", "id": "http://lod.squirrel.link/data/limes/daicus/322e89c0-f571-4be4-a08c-84b35efb69e5", "name": "Kastell S\u00e2npaul (322e89c0-f571-4be4-a08c-84b35efb69e5)", "dateprops": [], "properties": {}, "geometry": {"type": "Point", "coordinates": [25.379472, 46.194833], "crs": "4326"}}, {"type": "Feature", "id": "http://lod.squirrel.link/data/limes/daicus/7cb289bf-4a31-467d-9c9d-4271a8dc55c9", "name": "Kastell Boi\u0163a (Caput Stenarum)  (7cb289bf-4a31-467d-9c9d-4271a8dc55c9)", "dateprops": [], "properties": {}, "geometry": {"type": "Point", "coordinates": [24.266011, 45.635769], "crs": "4326"}}, {"type": "Feature", "id": "http://lod.squirrel.link/data/limes/daicus/a6ec226a-3c2a-444a-9221-839201e1135f", "name": "Kastell S\u0103pata de Jos I (a6ec226a-3c2a-444a-9221-839201e1135f)", "dateprops": [], "properties": {}, "geometry": {"type": "Point", "coordinates": [24.763556, 44.707333], "crs": "4326"}}, {"type": "Feature", "id": "http://lod.squirrel.link/data/limes/daicus/9f76d5fd-4ee3-4985-9fb6-c22bfdf43436", "name": "Kastell Putineiu (9f76d5fd-4ee3-4985-9fb6-c22bfdf43436)", "dateprops": [], "properties": {}, "geometry": {"type": "Point", "coordinates": [24.965361, 43.897806], "crs": "4326"}}, {"type": "Feature", "id": "http://lod.squirrel.link/data/limes/daicus/59eaf728-6bdb-4f30-a9e7-abec5dbbaa5f", "name": "Kastell S\u00e2nnicolau Mare (59eaf728-6bdb-4f30-a9e7-abec5dbbaa5f)", "dateprops": [], "properties": {}, "geometry": {"type": "Point", "coordinates": [20.629444, 46.072222], "crs": "4326"}}, {"type": "Feature", "id": "http://lod.squirrel.link/data/limes/daicus/f81e10af-8e41-447d-b601-dcba5311199b", "name": "Kastell Re\u015fca (Romula/Malva) (f81e10af-8e41-447d-b601-dcba5311199b)", "dateprops": [], "properties": {}, "geometry": {"type": "Point", "coordinates": [24.400833, 44.166667], "crs": "4326"}}, {"type": "Feature", "id": "http://lod.squirrel.link/data/limes/daicus/340738ca-7444-4896-a0fd-cd9e6806eb30", "name": "Kastell Mehadia (Praetorium) (340738ca-7444-4896-a0fd-cd9e6806eb30)", "dateprops": [], "properties": {}, "geometry": {"type": "Point", "coordinates": [22.3522, 44.9229], "crs": "4326"}}, {"type": "Feature", "id": "http://lod.squirrel.link/data/limes/daicus/3f7e0b8c-1a5f-423f-85da-536d87bbdcc8", "name": "Kastell Orheiul Bistri\u0163ei (3f7e0b8c-1a5f-423f-85da-536d87bbdcc8)", "dateprops": [], "properties": {}, "geometry": {"type": "Point", "coordinates": [24.592319, 47.096014], "crs": "4326"}}, {"type": "Feature", "id": "http://lod.squirrel.link/data/limes/daicus/5e33b468-4135-46b4-babc-99f5c423f966", "name": "Kastell Szeged (5e33b468-4135-46b4-babc-99f5c423f966)", "dateprops": [], "properties": {}, "geometry": {"type": "Point", "coordinates": [20.145953, 46.253697], "crs": "4326"}}, {"type": "Feature", "id": "http://lod.squirrel.link/data/limes/daicus/815f5c63-8478-4aac-bafb-11eaafa9a923", "name": "Kastell Dupljaja (815f5c63-8478-4aac-bafb-11eaafa9a923)", "dateprops": [], "properties": {}, "geometry": {"type": "Point", "coordinates": [21.275078, 44.927103], "crs": "4326"}}, {"type": "Feature", "id": "http://lod.squirrel.link/data/limes/daicus/7a5a0685-4a85-48f0-a5ac-7b3b56efa3dc", "name": "Kastell Ro\u0219iorii de Vede (7a5a0685-4a85-48f0-a5ac-7b3b56efa3dc)", "dateprops": [], "properties": {}, "geometry": {"type": "Point", "coordinates": [24.947028, 44.074472], "crs": "4326"}}, {"type": "Feature", "id": "http://lod.squirrel.link/data/limes/daicus/8fa245f8-ffe5-4e74-b259-410c7be91afd", "name": "Kastell Tite\u015fti (8fa245f8-ffe5-4e74-b259-410c7be91afd)", "dateprops": [], "properties": {}, "geometry": {"type": "Point", "coordinates": [24.394444, 45.409722], "crs": "4326"}}, {"type": "Feature", "id": "http://lod.squirrel.link/data/limes/daicus/9a084d40-bf5c-42fa-8aa7-8c678524c631", "name": "Kastell Racovi\u0163a (Praetorium II) (9a084d40-bf5c-42fa-8aa7-8c678524c631)", "dateprops": [], "properties": {}, "geometry": {"type": "Point", "coordinates": [24.757222, 43.733056], "crs": "4326"}}, {"type": "Feature", "id": "http://lod.squirrel.link/data/limes/daicus/50320dbe-929c-40e3-aebd-f8f257d6472a", "name": "Kastell Castranova (50320dbe-929c-40e3-aebd-f8f257d6472a)", "dateprops": [], "properties": {}, "geometry": {"type": "Point", "coordinates": [24.016667, 44.116667], "crs": "4326"}}, {"type": "Feature", "id": "http://lod.squirrel.link/data/limes/daicus/6689fc0e-01ff-4dbc-b3ed-49e35a3d397a", "name": "Kastell Bologa (Resculum) (6689fc0e-01ff-4dbc-b3ed-49e35a3d397a)", "dateprops": [], "properties": {}, "geometry": {"type": "Point", "coordinates": [22.884611, 46.885694], "crs": "4326"}}, {"type": "Feature", "id": "http://lod.squirrel.link/data/limes/daicus/0fe1d8dd-b425-4d55-ae80-2cd8d5d61ace", "name": "Kastell C\u0103\u015feiu (Samum) (0fe1d8dd-b425-4d55-ae80-2cd8d5d61ace)", "dateprops": [], "properties": {}, "geometry": {"type": "Point", "coordinates": [23.837639, 47.186222], "crs": "4326"}}, {"type": "Feature", "id": "http://lod.squirrel.link/data/limes/daicus/c8ecf3da-c535-41df-b06e-298cd8542633", "name": "Kastell Teregova (Ad Pannonios) (c8ecf3da-c535-41df-b06e-298cd8542633)", "dateprops": [], "properties": {}, "geometry": {"type": "Point", "coordinates": [22.306831, 45.168611], "crs": "4326"}}, {"type": "Feature", "id": "http://lod.squirrel.link/data/limes/daicus/80ce787b-1ab0-42e7-b03c-c641d3767774", "name": "Kastell Perisani (80ce787b-1ab0-42e7-b03c-c641d3767774)", "dateprops": [], "properties": {}, "geometry": {"type": "Point", "coordinates": [24.400833, 45.370833], "crs": "4326"}}, {"type": "Feature", "id": "http://lod.squirrel.link/data/limes/daicus/10b043a5-bb2b-48af-a168-84046185d6f7", "name": "Kastell Pinoasa (10b043a5-bb2b-48af-a168-84046185d6f7)", "dateprops": [], "properties": {}, "geometry": {"type": "Point", "coordinates": [23.098056, 44.9075], "crs": "4326"}}, {"type": "Feature", "id": "http://lod.squirrel.link/data/limes/daicus/e0423dfe-4fdf-4bf6-8453-97d7bee4d031", "name": "Kastell Ghioca (e0423dfe-4fdf-4bf6-8453-97d7bee4d031)", "dateprops": [], "properties": {}, "geometry": {"type": "Point", "coordinates": [24.761056, 44.307778], "crs": "4326"}}, {"type": "Feature", "id": "http://lod.squirrel.link/data/limes/daicus/096a9a4c-020f-4ce0-a4a6-993d50d08fea", "name": "Kastell Cop\u0103ceni (Praetorium I) (096a9a4c-020f-4ce0-a4a6-993d50d08fea)", "dateprops": [], "properties": {}, "geometry": {"type": "Point", "coordinates": [24.309861, 45.395903], "crs": "4326"}}, {"type": "Feature", "id": "http://lod.squirrel.link/data/limes/daicus/5b90b8d5-ba6e-4789-94d2-db823824acbf", "name": "Kastell C\u0103ineni (Pons Vetus ?) (5b90b8d5-ba6e-4789-94d2-db823824acbf)", "dateprops": [], "properties": {}, "geometry": {"type": "Point", "coordinates": [24.308611, 45.495], "crs": "4326"}}, {"type": "Feature", "id": "http://lod.squirrel.link/data/limes/daicus/4df4edbc-facd-42bd-b05e-076f94ae693b", "name": "Kastell IIone\u0219tii Govorii (Pons Aluti) (4df4edbc-facd-42bd-b05e-076f94ae693b)", "dateprops": [], "properties": {}, "geometry": {"type": "Point", "coordinates": [24.236111, 44.883333], "crs": "4326"}}, {"type": "Feature", "id": "http://lod.squirrel.link/data/limes/daicus/1d8f65a8-c30b-40f1-9676-2e1145691ac3", "name": "Kastell Abrud (Alburnus Maior) (1d8f65a8-c30b-40f1-9676-2e1145691ac3)", "dateprops": [], "properties": {}, "geometry": {"type": "Point", "coordinates": [23.068611, 46.272222], "crs": "4326"}}, {"type": "Feature", "id": "http://lod.squirrel.link/data/limes/daicus/9a118e00-be2c-4c2d-a9f9-8cb86170e3d1", "name": "Kastell R\u0103d\u0103cine\u015fti (9a118e00-be2c-4c2d-a9f9-8cb86170e3d1)", "dateprops": [], "properties": {}, "geometry": {"type": "Point", "coordinates": [24.441944, 45.281528], "crs": "4326"}}, {"type": "Feature", "id": "http://lod.squirrel.link/data/limes/daicus/e69e6cb2-cded-446c-b159-daec78476f43", "name": "Kastell C\u0103ciul\u0103te\u0219ti (e69e6cb2-cded-446c-b159-daec78476f43)", "dateprops": [], "properties": {}, "geometry": {"type": "Point", "coordinates": [23.949167, 43.938056], "crs": "4326"}}, {"type": "Feature", "id": "http://lod.squirrel.link/data/limes/daicus/3b51185a-d7ca-4c22-b85d-a021b3727c4d", "name": "Kastell Br\u00e2ncovene\u015fti (3b51185a-d7ca-4c22-b85d-a021b3727c4d)", "dateprops": [], "properties": {}, "geometry": {"type": "Point", "coordinates": [24.766042, 46.861514], "crs": "4326"}}, {"type": "Feature", "id": "http://lod.squirrel.link/data/limes/daicus/9d1c0c0d-98f5-4728-86ee-4288dde6d0fa", "name": "Kastell R\u00e2\u0219nov  (9d1c0c0d-98f5-4728-86ee-4288dde6d0fa)", "dateprops": [], "properties": {}, "geometry": {"type": "Point", "coordinates": [25.441581, 45.618708], "crs": "4326"}}, {"type": "Feature", "id": "http://lod.squirrel.link/data/limes/daicus/3af3a2c4-8038-482d-9fa9-a0e90584ef6d", "name": "Kastell Bulci (3af3a2c4-8038-482d-9fa9-a0e90584ef6d)", "dateprops": [], "properties": {}, "geometry": {"type": "Point", "coordinates": [22.112283, 46.006539], "crs": "4326"}}, {"type": "Feature", "id": "http://lod.squirrel.link/data/limes/daicus/7b05b48b-cd48-4c66-916e-6ea581179843", "name": "Kastell Islaz-Verdea (7b05b48b-cd48-4c66-916e-6ea581179843)", "dateprops": [], "properties": {}, "geometry": {"type": "Point", "coordinates": [24.762222, 43.710278], "crs": "4326"}}, {"type": "Feature", "id": "http://lod.squirrel.link/data/limes/daicus/6c5d4f2f-8a7b-4ad5-8672-f4ecc7e80ff0", "name": "Kastell B\u0103neasa I (6c5d4f2f-8a7b-4ad5-8672-f4ecc7e80ff0)", "dateprops": [], "properties": {}, "geometry": {"type": "Point", "coordinates": [24.96525, 43.937806], "crs": "4326"}}, {"type": "Feature", "id": "http://lod.squirrel.link/data/limes/daicus/3680e065-f377-4f4d-a9d6-84523dcb1727", "name": "Kastell Bre\u021bcu  (3680e065-f377-4f4d-a9d6-84523dcb1727)", "dateprops": [], "properties": {}, "geometry": {"type": "Point", "coordinates": [26.312836, 46.050994], "crs": "4326"}}, {"type": "Feature", "id": "http://lod.squirrel.link/data/limes/daicus/42d9c007-47e1-4b2a-ab2c-c381f93cac96", "name": "Kastell Grebenac (42d9c007-47e1-4b2a-ab2c-c381f93cac96)", "dateprops": [], "properties": {}, "geometry": {"type": "Point", "coordinates": [21.232794, 44.897786], "crs": "4326"}}, {"type": "Feature", "id": "http://lod.squirrel.link/data/limes/daicus/707cb61a-d04e-4c7b-a620-6587db82f116", "name": "Kastell Purc\u0103reni (707cb61a-d04e-4c7b-a620-6587db82f116)", "dateprops": [], "properties": {}, "geometry": {"type": "Point", "coordinates": [24.8945, 44.958083], "crs": "4326"}}, {"type": "Feature", "id": "http://lod.squirrel.link/data/limes/daicus/7dd1742c-a3a5-4494-b148-1d435d754d5d", "name": "Kastell Vr\u0161ac (7dd1742c-a3a5-4494-b148-1d435d754d5d)", "dateprops": [], "properties": {}, "geometry": {"type": "Point", "coordinates": [21.300194, 45.122669], "crs": "4326"}}, {"type": "Feature", "id": "http://lod.squirrel.link/data/limes/daicus/e3899f66-1234-4a44-b16e-2ead1e0bf696", "name": "Kastell Cincsor (e3899f66-1234-4a44-b16e-2ead1e0bf696)", "dateprops": [], "properties": {}, "geometry": {"type": "Point", "coordinates": [24.866611, 45.842519], "crs": "4326"}}, {"type": "Feature", "id": "http://lod.squirrel.link/data/limes/daicus/0203af0b-bc52-4f9f-b490-b2bc3fe431fc", "name": "Kastell Cigm\u0103u  (0203af0b-bc52-4f9f-b490-b2bc3fe431fc)", "dateprops": [], "properties": {}, "geometry": {"type": "Point", "coordinates": [23.164364, 45.897053], "crs": "4326"}}, {"type": "Feature", "id": "http://lod.squirrel.link/data/limes/daicus/d92ef45f-91c4-442e-b279-61f17fbccb7c", "name": "Kastell Ili\u015fua (Arcobara) (d92ef45f-91c4-442e-b279-61f17fbccb7c)", "dateprops": [], "properties": {}, "geometry": {"type": "Point", "coordinates": [24.095361, 47.210528], "crs": "4326"}}, {"type": "Feature", "id": "http://lod.squirrel.link/data/limes/daicus/4198c975-e14a-4fb3-9b2e-7be9e145ecac", "name": "Kastell Jiblea (4198c975-e14a-4fb3-9b2e-7be9e145ecac)", "dateprops": [], "properties": {}, "geometry": {"type": "Point", "coordinates": [24.360556, 45.231944], "crs": "4326"}}, {"type": "Feature", "id": "http://lod.squirrel.link/data/limes/daicus/b6e369cd-722a-4a1c-a984-538bb26f3777", "name": "Kastell Buciumi (b6e369cd-722a-4a1c-a984-538bb26f3777)", "dateprops": [], "properties": {}, "geometry": {"type": "Point", "coordinates": [23.044569, 47.048264], "crs": "4326"}}, {"type": "Feature", "id": "http://lod.squirrel.link/data/limes/daicus/4e013c45-7445-4ea6-8356-2c9cc9e7ac6e", "name": "Kastell Gil\u0103u (4e013c45-7445-4ea6-8356-2c9cc9e7ac6e)", "dateprops": [], "properties": {}, "geometry": {"type": "Point", "coordinates": [23.391764, 46.754058], "crs": "4326"}}, {"type": "Feature", "id": "http://lod.squirrel.link/data/limes/daicus/f42bb013-afeb-4044-9886-ece53cc813d4", "name": "Kastell Sutoru (f42bb013-afeb-4044-9886-ece53cc813d4)", "dateprops": [], "properties": {}, "geometry": {"type": "Point", "coordinates": [23.251667, 46.986086], "crs": "4326"}}, {"type": "Feature", "id": "http://lod.squirrel.link/data/limes/daicus/7cadca30-bfd9-4628-9916-c20eecafa356", "name": "Kastell Stolniceni (7cadca30-bfd9-4628-9916-c20eecafa356)", "dateprops": [], "properties": {}, "geometry": {"type": "Point", "coordinates": [24.360675, 45.105944], "crs": "4326"}}, {"type": "Feature", "id": "http://lod.squirrel.link/data/limes/daicus/d2adbbd5-f4a7-471d-a817-b28e37bcbfb1", "name": "Kastell Banatska Palanka (d2adbbd5-f4a7-471d-a817-b28e37bcbfb1)", "dateprops": [], "properties": {}, "geometry": {"type": "Point", "coordinates": [21.331111, 44.845], "crs": "4326"}}, {"type": "Feature", "id": "http://lod.squirrel.link/data/limes/daicus/bf339c52-9ac1-4b87-94ab-2dc33bc7d3e4", "name": "Kastell Odorheiul Secuiesc (bf339c52-9ac1-4b87-94ab-2dc33bc7d3e4)", "dateprops": [], "properties": {}, "geometry": {"type": "Point", "coordinates": [25.3002, 46.3131], "crs": "4326"}}, {"type": "Feature", "id": "http://lod.squirrel.link/data/limes/daicus/86dae60a-c827-480d-bb38-04a480b9ea01", "name": "Kastell Cenad (86dae60a-c827-480d-bb38-04a480b9ea01)", "dateprops": [], "properties": {}, "geometry": {"type": "Point", "coordinates": [20.585819, 46.138106], "crs": "4326"}}, {"type": "Feature", "id": "http://lod.squirrel.link/data/limes/daicus/ae458e0d-85d0-4756-b265-db4db5bb7fe2", "name": "Kastell Inl\u0103ceni (ae458e0d-85d0-4756-b265-db4db5bb7fe2)", "dateprops": [], "properties": {}, "geometry": {"type": "Point", "coordinates": [25.121806, 46.431319], "crs": "4326"}}, {"type": "Feature", "id": "http://lod.squirrel.link/data/limes/daicus/c3a471a8-ab67-4e9c-b127-1eff017b0cb4", "name": "Kastell Albota (c3a471a8-ab67-4e9c-b127-1eff017b0cb4)", "dateprops": [], "properties": {}, "geometry": {"type": "Point", "coordinates": [24.8375, 44.771389], "crs": "4326"}}, {"type": "Feature", "id": "http://lod.squirrel.link/data/limes/daicus/120e3991-1f39-4359-b810-37bb24aff05c", "name": "Kastell Romita (120e3991-1f39-4359-b810-37bb24aff05c)", "dateprops": [], "properties": {}, "geometry": {"type": "Point", "coordinates": [23.172444, 47.106944], "crs": "4326"}}, {"type": "Feature", "id": "http://lod.squirrel.link/data/limes/daicus/70d51242-571e-43ce-bd01-3bffca8cb4be", "name": "Kastell Feldioara (70d51242-571e-43ce-bd01-3bffca8cb4be)", "dateprops": [], "properties": {}, "geometry": {"type": "Point", "coordinates": [25.591561, 45.816419], "crs": "4326"}}, {"type": "Feature", "id": "http://lod.squirrel.link/data/limes/daicus/ec646e12-636f-4c8c-96c2-0f46833adf1c", "name": "Kastell R\u0103carii de Jos (ec646e12-636f-4c8c-96c2-0f46833adf1c)", "dateprops": [], "properties": {}, "geometry": {"type": "Point", "coordinates": [23.571847, 44.514], "crs": "4326"}}, {"type": "Feature", "id": "http://lod.squirrel.link/data/limes/daicus/c3451d14-c4ee-42be-b918-af9735167f5f", "name": "Kastell Sarateni (c3451d14-c4ee-42be-b918-af9735167f5f)", "dateprops": [], "properties": {}, "geometry": {"type": "Point", "coordinates": [25.008889, 46.562222], "crs": "4326"}}, {"type": "Feature", "id": "http://lod.squirrel.link/data/limes/daicus/8c5f1f84-f11a-48f0-8e9a-c629c7d346e2", "name": "Kastell C\u00e2mpulung Muscel II (8c5f1f84-f11a-48f0-8e9a-c629c7d346e2)", "dateprops": [], "properties": {}, "geometry": {"type": "Point", "coordinates": [25.012694, 45.221], "crs": "4326"}}, {"type": "Feature", "id": "http://lod.squirrel.link/data/limes/daicus/0ab5e10e-4fb0-4854-835b-389043840ee0", "name": "Kastell Li\u015fteava (0ab5e10e-4fb0-4854-835b-389043840ee0)", "dateprops": [], "properties": {}, "geometry": {"type": "Point", "coordinates": [23.92, 43.834167], "crs": "4326"}}, {"type": "Feature", "id": "http://lod.squirrel.link/data/limes/daicus/46e40ed7-3b02-4bb3-ba5c-8dcb5f55b990", "name": "Kastell Plesa (46e40ed7-3b02-4bb3-ba5c-8dcb5f55b990)", "dateprops": [], "properties": {}, "geometry": {"type": "Point", "coordinates": [23.37, 45.18], "crs": "4326"}}, {"type": "Feature", "id": "http://lod.squirrel.link/data/limes/daicus/e2573931-d743-40c3-a6b7-08ffeb244daa", "name": "Kastell Valea Urluii (e2573931-d743-40c3-a6b7-08ffeb244daa)", "dateprops": [], "properties": {}, "geometry": {"type": "Point", "coordinates": [24.937389, 44.061333], "crs": "4326"}}, {"type": "Feature", "id": "http://lod.squirrel.link/data/limes/daicus/5ea0f057-026f-4556-97f5-3e0e3a9471c3", "name": "Kastell Gherla (5ea0f057-026f-4556-97f5-3e0e3a9471c3)", "dateprops": [], "properties": {}, "geometry": {"type": "Point", "coordinates": [23.899911, 47.019833], "crs": "4326"}}, {"type": "Feature", "id": "http://lod.squirrel.link/data/limes/daicus/5a43030f-b985-4444-8cf9-3e4a0b132d79", "name": "Kastell V\u00e2rtop (5a43030f-b985-4444-8cf9-3e4a0b132d79)", "dateprops": [], "properties": {}, "geometry": {"type": "Point", "coordinates": [23.372222, 45.1825], "crs": "4326"}}, {"type": "Feature", "id": "http://lod.squirrel.link/data/limes/daicus/1795d125-e071-4153-b07e-e147bb19ad65", "name": "Kastell Comal\u0103u (1795d125-e071-4153-b07e-e147bb19ad65)", "dateprops": [], "properties": {}, "geometry": {"type": "Point", "coordinates": [25.900222, 45.844172], "crs": "4326"}}, {"type": "Feature", "id": "http://lod.squirrel.link/data/limes/daicus/e811fe5a-92d2-43a0-a572-51bc5942e242", "name": "Kastell Aizis (e811fe5a-92d2-43a0-a572-51bc5942e242)", "dateprops": [], "properties": {}, "geometry": {"type": "Point", "coordinates": [21.847883, 45.486656], "crs": "4326"}}, {"type": "Feature", "id": "http://lod.squirrel.link/data/limes/daicus/1c936059-6af8-4f03-8e18-cc61f529c5f3", "name": "Kastelle von Porolissum (1c936059-6af8-4f03-8e18-cc61f529c5f3)", "dateprops": [], "properties": {}, "geometry": {"type": "Point", "coordinates": [23.157319, 47.179167], "crs": "4326"}}, {"type": "Feature", "id": "http://lod.squirrel.link/data/limes/daicus/000d5176-6b9e-4065-a44f-d7b8f75b1199", "name": "Kastell Or\u0103\u015ftioara de Sus (000d5176-6b9e-4065-a44f-d7b8f75b1199)", "dateprops": [], "properties": {}, "geometry": {"type": "Point", "coordinates": [23.166667, 45.733333], "crs": "4326"}}, {"type": "Feature", "id": "http://lod.squirrel.link/data/limes/daicus/b5cf0c45-ec51-4710-a03a-75e7dc30a7a3", "name": "Kastell Romanasi (Largiana) (b5cf0c45-ec51-4710-a03a-75e7dc30a7a3)", "dateprops": [], "properties": {}, "geometry": {"type": "Point", "coordinates": [23.181678, 47.113403], "crs": "4326"}}, {"type": "Feature", "id": "http://lod.squirrel.link/data/limes/daicus/01189de6-024d-4022-96ff-eec7e4efee0c", "name": "Kastell Or\u0219ova (Dierna) (01189de6-024d-4022-96ff-eec7e4efee0c)", "dateprops": [], "properties": {}, "geometry": {"type": "Point", "coordinates": [22.4076, 44.7382], "crs": "4326"}}, {"type": "Feature", "id": "http://lod.squirrel.link/data/limes/daicus/0f25c729-a3c7-4cb4-b063-ff72c0124b4f", "name": "Kastell Urluieni I (0f25c729-a3c7-4cb4-b063-ff72c0124b4f)", "dateprops": [], "properties": {}, "geometry": {"type": "Point", "coordinates": [24.761417, 44.485833], "crs": "4326"}}], "numberMatched": 98, "numberReturned": 98, "bbox": [20.145953, 43.710278, 26.312836, 47.227733], "crs": "http://www.opengis.net/def/crs/EPSG/0/4326"}