{"type": "FeatureCollection", "id": "http://lod.squirrel.link/data/limes/MilitaryCamp_collection", "name": "MilitaryCamp Instances Collection", "features": [{"type": "Feature", "id": "http://lod.squirrel.link/data/limes/noricum/13572025-f4dc-4503-8aad-72050202752b", "name": "Kastell Melk (13572025-f4dc-4503-8aad-72050202752b)", "dateprops": [], "properties": {}, "geometry": {"type": "Point", "coordinates": [15.331111, 48.228333], "crs": "4326"}}, {"type": "Feature", "id": "http://lod.squirrel.link/data/limes/noricum/d151609e-cb90-4faf-a74b-54d2f52e01a1", "name": "Kastell Comagena (d151609e-cb90-4faf-a74b-54d2f52e01a1)", "dateprops": [], "properties": {}, "geometry": {"type": "Point", "coordinates": [16.052083, 48.331056], "crs": "4326"}}, {"type": "Feature", "id": "http://lod.squirrel.link/data/limes/noricum/78b044f5-8a10-47ed-acf0-74658affbf22", "name": "Kastell Lentia (78b044f5-8a10-47ed-acf0-74658affbf22)", "dateprops": [], "properties": {}, "geometry": {"type": "Point", "coordinates": [14.290556, 48.303056], "crs": "4326"}}, {"type": "Feature", "id": "http://lod.squirrel.link/data/limes/noricum/d0ef2a62-6c85-44ce-a995-65ab6d5a5f43", "name": "Kastell Boiotro (d0ef2a62-6c85-44ce-a995-65ab6d5a5f43)", "dateprops": [], "properties": {}, "geometry": {"type": "Point", "coordinates": [13.462222, 48.569722], "crs": "4326"}}, {"type": "Feature", "id": "http://lod.squirrel.link/data/limes/noricum/cfcfa4b0-501f-4563-8157-3c76054014a4", "name": "Kastell Favianis (cfcfa4b0-501f-4563-8157-3c76054014a4)", "dateprops": [], "properties": {}, "geometry": {"type": "Point", "coordinates": [15.577639, 48.39375], "crs": "4326"}}, {"type": "Feature", "id": "http://lod.squirrel.link/data/limes/noricum/9f8f4e96-12d9-449b-b9ab-6e6080e34c9f", "name": "Kastell Boiodurum  (9f8f4e96-12d9-449b-b9ab-6e6080e34c9f)", "dateprops": [], "properties": {}, "geometry": {"type": "Point", "coordinates": [13.47585, 48.57125], "crs": "4326"}}, {"type": "Feature", "id": "http://lod.squirrel.link/data/limes/noricum/0f5c8dda-88a9-48ad-bf8f-e72f216a4066", "name": "Kastell Zwentendorf (0f5c8dda-88a9-48ad-bf8f-e72f216a4066)", "dateprops": [], "properties": {}, "geometry": {"type": "Point", "coordinates": [15.913889, 48.3425], "crs": "4326"}}, {"type": "Feature", "id": "http://lod.squirrel.link/data/limes/noricum/d8bcb543-3948-43fd-937b-2782138b9deb", "name": "Kastell Wallsee (d8bcb543-3948-43fd-937b-2782138b9deb)", "dateprops": [], "properties": {}, "geometry": {"type": "Point", "coordinates": [14.716667, 48.166667], "crs": "4326"}}, {"type": "Feature", "id": "http://lod.squirrel.link/data/limes/noricum/8f964055-7a95-4e88-bcef-5bd3a5824de9", "name": "Kastell Cannabiaca (8f964055-7a95-4e88-bcef-5bd3a5824de9)", "dateprops": [], "properties": {}, "geometry": {"type": "Point", "coordinates": [16.177083, 48.328972], "crs": "4326"}}, {"type": "Feature", "id": "http://lod.squirrel.link/data/limes/noricum/b3e7d110-127b-45a7-9195-5e8a694e4862", "name": "Kastell Arelape (b3e7d110-127b-45a7-9195-5e8a694e4862)", "dateprops": [], "properties": {}, "geometry": {"type": "Point", "coordinates": [15.2, 48.2], "crs": "4326"}}, {"type": "Feature", "id": "http://lod.squirrel.link/data/limes/noricum/2bf44917-dd67-4ec8-9240-513476cdb60c", "name": "Kastell Augustianis (2bf44917-dd67-4ec8-9240-513476cdb60c)", "dateprops": [], "properties": {}, "geometry": {"type": "Point", "coordinates": [15.733056, 48.333333], "crs": "4326"}}, {"type": "Feature", "id": "http://lod.squirrel.link/data/limes/noricum/0e8a5ba3-887e-4540-92c3-d35fef2bd579", "name": "Kastell Eferding (0e8a5ba3-887e-4540-92c3-d35fef2bd579)", "dateprops": [], "properties": {}, "geometry": {"type": "Point", "coordinates": [14.033333, 48.316667], "crs": "4326"}}], "numberMatched": 12, "numberReturned": 12, "bbox": [13.462222, 48.166667, 16.177083, 48.57125], "crs": "http://www.opengis.net/def/crs/EPSG/0/4326"}